[
  {
    "Name": "Achaar Ghar",
    "Address": "Jhamsikhel, Lalitpur",
    "Cuisine": "Nepali",
    "id": 1,
    "Latitude": 27.6827881,
    "Longitude": 85.3021862
  },
  {
    "Name": "Ageno",
    "Address": "Dhobighat-04, Lalitpur",
    "Cuisine": "Multi Cuisine | Indian | Biryani",
    "id": 2,
    "Latitude": 27.6745083,
    "Longitude": 85.3069402
  },
  {
    "Name": "Alchemy Pizzeria",
    "Address": "Thamel, Kathmandu",
    "Cuisine": "Italian | Pizza",
    "id": 3,
    "Latitude": 27.717028,
    "Longitude": 85.311256
  },
  {
    "Name": "Alice Restaurant",
    "Address": "Gairidhara, Kathmandu",
    "Cuisine": "Japanese | Multi Cuisine | Nepali",
    "id": 4,
    "Latitude": 27.7177295,
    "Longitude": 85.3278347
  },
  {
    "Name": "Alina's Cafe",
    "Address": "New Baneshwor, Kathmandu",
    "Cuisine": "Multi Cuisine",
    "id": 5,
    "Latitude": 27.68990755,
    "Longitude": 85.33565914433615
  },
  {
    "Name": "Angan",
    "Address": "Thapathali, Kathmandu",
    "Cuisine": "Indian | Vegetarian",
    "id": 6,
    "Latitude": 27.6890227,
    "Longitude": 85.3204209
  },
  {
    "Name": "Baan Thai",
    "Address": "Durbar Marg, Kathmandu",
    "Cuisine": "Thai",
    "id": 10,
    "Latitude": 27.7035601,
    "Longitude": 85.3163819
  },
  {
    "Name": "Baan Thai",
    "Address": "Jawalakhel, Lalitpur",
    "Cuisine": "Thai | Asian",
    "id": 12,
    "Latitude": 27.6724402,
    "Longitude": 85.3133757
  },
  {
    "Name": "Barista",
    "Address": "Jawalakhel  , Lalitpur",
    "Cuisine": "Continental | Multi Cuisine | Italian",
    "id": 13,
    "Latitude": 27.6724402,
    "Longitude": 85.3133757
  },
  {
    "Name": "Bawarchi",
    "Address": "Jawalakhel, Lalitpur",
    "Cuisine": "Halal | Indian | Biryani",
    "id": 15,
    "Latitude": 27.6724402,
    "Longitude": 85.3133757
  },
  {
    "Name": "Bawarchi",
    "Address": "Babarmahal, Kathmandu",
    "Cuisine": "Indian | Halal | Biryani",
    "id": 16,
    "Latitude": 27.6932347,
    "Longitude": 85.3247236
  },
  {
    "Name": "Bayleaf Restaurant",
    "Address": "Tangal, Kathmandu",
    "Cuisine": "Asian | Multi Cuisine",
    "id": 17,
    "Latitude": 27.7172307,
    "Longitude": 85.3304488
  },
  {
    "Name": "Beijing Garden",
    "Address": "Battisputali",
    "Cuisine": "Chinese | Asian",
    "id": 18,
    "Latitude": 27.7056762,
    "Longitude": 85.3415089
  },
  {
    "Name": "Belgian Waffles",
    "Address": "Durbarmarg, Kathmandu",
    "Cuisine": "Fast Food",
    "id": 19,
    "Latitude": 27.7111138,
    "Longitude": 85.3177122
  },
  {
    "Name": "BFC : Bites Fried Chicken",
    "Address": "Kumaripati, Lalitpur",
    "Cuisine": "Fast Food",
    "id": 20,
    "Latitude": 27.6705227,
    "Longitude": 85.3207195
  },
  {
    "Name": "Bhumi",
    "Address": "Lazimpat",
    "Cuisine": "Newari",
    "id": 22,
    "Latitude": 27.7221328,
    "Longitude": 85.3207726
  },
  {
    "Name": "Black Pepper Cafe And Pub",
    "Address": "Jhamsikhel, Lalitpur",
    "Cuisine": "Continental | Multi Cuisine",
    "id": 24,
    "Latitude": 27.6827881,
    "Longitude": 85.3021862
  },
  {
    "Name": "Black Water",
    "Address": "New Road, Kathmandu",
    "Cuisine": "Italian | Pizza | Fast Food",
    "id": 25,
    "Latitude": 27.7033787,
    "Longitude": 85.3111229
  },
  {
    "Name": "Black Water Restaurant",
    "Address": "New Baneshwor, Kathmandu",
    "Cuisine": "Italian | Pizza",
    "id": 26,
    "Latitude": 27.68990755,
    "Longitude": 85.33565914433615
  },
  {
    "Name": "Black Water",
    "Address": "Thamel, Kathmandu",
    "Cuisine": "Italian | Pizza",
    "id": 27,
    "Latitude": 27.717028,
    "Longitude": 85.311256
  },
  {
    "Name": "Bota Simply Mo: Mo",
    "Address": "Kumaripati, Lalitpur",
    "Cuisine": "MoMo | Fast Food",
    "id": 28,
    "Latitude": 27.6705227,
    "Longitude": 85.3207195
  },
  {
    "Name": "Bota Simply Mo:Mo",
    "Address": "Kamal Pokhari, Kathmandu",
    "Cuisine": "MoMo | Fast Food",
    "id": 29,
    "Latitude": 27.710777399999998,
    "Longitude": 85.32528693673987
  },
  {
    "Name": "Bota Simply Mo:Mo",
    "Address": "Anamnagar, Kathmandu",
    "Cuisine": "MoMo | Fast Food",
    "id": 30,
    "Latitude": 27.692839399999997,
    "Longitude": 85.32842753971141
  },
  {
    "Name": "Bota Simply Mo:Mo",
    "Address": "Kalimati, Kathmandu",
    "Cuisine": "MoMo | Fast Food",
    "id": 31,
    "Latitude": 27.6986035,
    "Longitude": 85.2992018
  },
  {
    "Name": "Bota Simply Mo:Mo",
    "Address": "Jhochhen, Kathmandu",
    "Cuisine": "Fast Food | MoMo",
    "id": 32,
    "Latitude": 27.7025616,
    "Longitude": 85.3076289
  },
  {
    "Name": "Bricks Cafe",
    "Address": "Kupondole, Lalitpur",
    "Cuisine": "Italian | Pizza",
    "id": 33,
    "Latitude": 27.6853612,
    "Longitude": 85.3184277
  },
  {
    "Name": "Buingal Lounge & Bar",
    "Address": "Maitidevi, Kathmandu",
    "Cuisine": "Multi Cuisine",
    "id": 35,
    "Latitude": 27.7039253,
    "Longitude": 85.3328212
  },
  {
    "Name": "Burger Bar",
    "Address": "Labim Mall",
    "Cuisine": "Burger",
    "id": 36,
    "Latitude": 27.677196600000002,
    "Longitude": 85.31714428831928
  },
  {
    "Name": "Burger Shack",
    "Address": "Jawalakhel, Lalitpur",
    "Cuisine": "Burger | Fast Food",
    "id": 37,
    "Latitude": 27.6724402,
    "Longitude": 85.3133757
  },
  {
    "Name": "Burger Shack",
    "Address": "Tripureshwor, Kathmandu",
    "Cuisine": "Fast Food | Burger",
    "id": 38,
    "Latitude": 27.692602049999998,
    "Longitude": 85.31453327870256
  },
  {
    "Name": "Buzz Cafe",
    "Address": "Baluwatar, Kathmandu",
    "Cuisine": "Multi Cuisine",
    "id": 39,
    "Latitude": 27.7233471,
    "Longitude": 85.3331617
  },
  {
    "Name": "C.M.D. Foodland",
    "Address": "Tangal , Kathmandu",
    "Cuisine": "Multi Cuisine | Indian",
    "id": 40,
    "Latitude": 27.7172307,
    "Longitude": 85.3304488
  },
  {
    "Name": "Cafe Cheeno",
    "Address": "Krishna Galli, Patan, Lalitpur",
    "Cuisine": "Continental",
    "id": 41,
    "Latitude": 27.6804478,
    "Longitude": 85.3173405
  },
  {
    "Name": "Cafe Coffee Day",
    "Address": "Kumaripati, Lalitpur",
    "Cuisine": "Burger | Fast Food",
    "id": 42,
    "Latitude": 27.6705227,
    "Longitude": 85.3207195
  },
  {
    "Name": "Cafe Coffee Day",
    "Address": "Basantapur, Kathmandu",
    "Cuisine": "Burger | Fast Food",
    "id": 43,
    "Latitude": 27.704304,
    "Longitude": 85.30673908097647
  },
  {
    "Name": "Cafe Mozart",
    "Address": "Jhamsikhel",
    "Cuisine": "American",
    "id": 45,
    "Latitude": 27.6827881,
    "Longitude": 85.3021862
  },
  {
    "Name": "Cafe Swotha",
    "Address": "Swotha, Mangalbazar, Lalitpur",
    "Cuisine": "Continental",
    "id": 46,
    "Latitude": 27.6748173,
    "Longitude": 85.32572740449517
  },
  {
    "Name": "Cheese Machine",
    "Address": "Basantapur",
    "Cuisine": "Pizza | Fast Food",
    "id": 48,
    "Latitude": 22.9755144,
    "Longitude": 88.52974084124516
  },
  {
    "Name": "Chi-Chi Grill's",
    "Address": "Saugal, Patan, Lalitpur",
    "Cuisine": "Fast Food",
    "id": 49,
    "Latitude": 27.6720984,
    "Longitude": 85.3272806
  },
  {
    "Name": "Chick N Falafel",
    "Address": "Mandala Street, Thamel, Kathmandu",
    "Cuisine": "Middle Eastern",
    "id": 50,
    "Latitude": 27.7151331,
    "Longitude": 85.3108114
  },
  {
    "Name": "Chicken Station - Durbarmarg",
    "Address": "Durbar Marg",
    "Cuisine": "Fast Food",
    "id": 51,
    "Latitude": 27.7035601,
    "Longitude": 85.3163819
  },
  {
    "Name": "Chicken Station",
    "Address": "Jhamsikhel, Lalitpur",
    "Cuisine": "Fast Food",
    "id": 52,
    "Latitude": 27.6827881,
    "Longitude": 85.3021862
  },
  {
    "Name": "Chicken Station",
    "Address": "Kumaripati, Lalitpur",
    "Cuisine": "Fast Food",
    "id": 53,
    "Latitude": 27.6705227,
    "Longitude": 85.3207195
  },
  {
    "Name": "Chicken Station",
    "Address": "New Baneshwor, Kathmandu",
    "Cuisine": "Fast Food",
    "id": 54,
    "Latitude": 27.68990755,
    "Longitude": 85.33565914433615
  },
  {
    "Name": "China Town",
    "Address": "Lazimpat, Kathmandu",
    "Cuisine": "Chinese | Asian",
    "id": 55,
    "Latitude": 27.7215082,
    "Longitude": 85.3207646
  },
  {
    "Name": "Chulo Chauka",
    "Address": "Gyaneshwor, Kathmandu",
    "Cuisine": "Multi Cuisine",
    "id": 56,
    "Latitude": 27.708217949999998,
    "Longitude": 85.33138309245912
  },
  {
    "Name": "Cibo Bistro",
    "Address": "Pulchowk, Lalitpur",
    "Cuisine": "Continental",
    "id": 57,
    "Latitude": 27.6760817,
    "Longitude": 85.3157065
  },
  {
    "Name": "Classic Rock",
    "Address": "Thamel Marga, Kathmandu",
    "Cuisine": "Multi Cuisine",
    "id": 58,
    "Latitude": 27.7150268,
    "Longitude": 85.3116311
  },
  {
    "Name": "Coffee Pasal",
    "Address": "Durbarmarg, Kathmandu",
    "Cuisine": "Multi Cuisine",
    "id": 59,
    "Latitude": 27.7111138,
    "Longitude": 85.3177122
  },
  {
    "Name": "Country Yard Restaurant & Bar",
    "Address": "Narayan Chaur, Kathmandu",
    "Cuisine": "Multi Cuisine",
    "id": 60,
    "Latitude": 27.71517,
    "Longitude": 85.3258025
  },
  {
    "Name": "Crave Bakery",
    "Address": "Krishna Galli, Pulchowk, Lalitpur",
    "Cuisine": "Bakery",
    "id": 61,
    "Latitude": 27.6804478,
    "Longitude": 85.3173405
  },
  {
    "Name": "Crumbs Bakery",
    "Address": "Naxal, Kathmandu",
    "Cuisine": "Bakery",
    "id": 62,
    "Latitude": 27.7126782,
    "Longitude": 85.3287033
  },
  {
    "Name": "Crust Pizza",
    "Address": "Baneshwor, Kathmandu",
    "Cuisine": "Pizza | Italian",
    "id": 63,
    "Latitude": 27.68990755,
    "Longitude": 85.33565914433615
  },
  {
    "Name": "Dabali",
    "Address": "Nagpokhari Marg, Kathmandu, Nepal",
    "Cuisine": "Fast Food",
    "id": 66,
    "Latitude": 27.713488,
    "Longitude": 85.324369
  },
  {
    "Name": "Daddy's Kitchen : New Baneshwor",
    "Address": "New Baneshwor",
    "Cuisine": "Fast Food | Burger",
    "id": 68,
    "Latitude": 27.68990755,
    "Longitude": 85.33565914433615
  },
  {
    "Name": "Dalle Golfutar",
    "Address": "Golfutar",
    "Cuisine": "MoMo",
    "id": 69,
    "Latitude": 27.7767348,
    "Longitude": 85.3620926
  },
  {
    "Name": "Dalle Jawalakhel",
    "Address": "Jawalakhel",
    "Cuisine": "MoMo",
    "id": 70,
    "Latitude": 27.6724402,
    "Longitude": 85.3133757
  },
  {
    "Name": "Dalle Kamaladi",
    "Address": "Kamaladi",
    "Cuisine": "MoMo",
    "id": 71,
    "Latitude": 27.708065249999997,
    "Longitude": 85.31931643480625
  },
  {
    "Name": "Dharane Sekuwa",
    "Address": "Anamnagar, Kathmandu",
    "Cuisine": "Nepali | Multi Cuisine | Asian",
    "id": 72,
    "Latitude": 27.692839399999997,
    "Longitude": 85.32842753971141
  },
  {
    "Name": "Dhokaima Cafe",
    "Address": "Patan Dhoka, Lalitpur",
    "Cuisine": "Bakery | Multi Cuisine",
    "id": 75,
    "Latitude": 27.6791195,
    "Longitude": 85.3207483
  },
  {
    "Name": "Diyalo Foodland",
    "Address": "Dhapasi, Basundhara, Kathmandu",
    "Cuisine": "Multi Cuisine",
    "id": 76,
    "Latitude": 27.7434594,
    "Longitude": 85.3339248
  },
  {
    "Name": "Dream Garden Cafe KGH",
    "Address": "Thamel",
    "Cuisine": "Multi Cuisine",
    "id": 77,
    "Latitude": 27.717028,
    "Longitude": 85.311256
  },
  {
    "Name": "Drop In Restaurant",
    "Address": "Bhanimandal, Lalitpur",
    "Cuisine": "MoMo | Fast Food | Multi Cuisine",
    "id": 78,
    "Latitude": 27.670837249999998,
    "Longitude": 85.30581811296354
  },
  {
    "Name": "Dzukou Tribal Kitchen",
    "Address": "Thamel, Kathmandu",
    "Cuisine": "Asian",
    "id": 79,
    "Latitude": 27.717028,
    "Longitude": 85.311256
  },
  {
    "Name": "Embassy Restaurant & Bar",
    "Address": "Pani Pokhari, Kathmandu, Kathmandu",
    "Cuisine": "Japanese, Asian, Chinese, Indian",
    "id": 80,
    "Latitude": 27.7289071,
    "Longitude": 85.3250858
  },
  {
    "Name": "Embers Restaurant",
    "Address": "Krishna Galli, Pulchowk, lalitpur",
    "Cuisine": "Chinese",
    "id": 81,
    "Latitude": 27.6804478,
    "Longitude": 85.3173405
  },
  {
    "Name": "Empire",
    "Address": "Durbar Marg, Kathmandu",
    "Cuisine": "Multi Cuisine",
    "id": 82,
    "Latitude": 27.7035601,
    "Longitude": 85.3163819
  },
  {
    "Name": "European Bakery",
    "Address": "Baluwatar, Kathmandu",
    "Cuisine": "Bakery | Cake",
    "id": 83,
    "Latitude": 27.7233471,
    "Longitude": 85.3331617
  },
  {
    "Name": "Everest Fast Food Cafe`",
    "Address": "Bhatbhateni, Kathmandu",
    "Cuisine": "Fast Food | Multi Cuisine",
    "id": 84,
    "Latitude": 27.7192364,
    "Longitude": 85.3311727
  },
  {
    "Name": "Everest Fast Food Center",
    "Address": "Anamnagar, Kathmandu",
    "Cuisine": "Fast Food | Multi Cuisine",
    "id": 85,
    "Latitude": 27.692839399999997,
    "Longitude": 85.32842753971141
  },
  {
    "Name": "Everest Grill House",
    "Address": "Baluwatar, Kathmandu",
    "Cuisine": "Multi Cuisine",
    "id": 86,
    "Latitude": 27.7233471,
    "Longitude": 85.3331617
  },
  {
    "Name": "Farmers Market",
    "Address": "Panipokhari , Kathmandu",
    "Cuisine": "Farmers Market | Organic",
    "id": 87,
    "Latitude": 27.7292515,
    "Longitude": 85.3247457
  },
  {
    "Name": "Fire And Ice Pizzeria",
    "Address": "Thamel, Kathmandu",
    "Cuisine": "Italian | Pizza",
    "id": 88,
    "Latitude": 27.717028,
    "Longitude": 85.311256
  },
  {
    "Name": "Flat Iron Grill",
    "Address": "Lazimpat, Kathmandu",
    "Cuisine": "Burger | Continental | American",
    "id": 89,
    "Latitude": 27.7215082,
    "Longitude": 85.3207646
  },
  {
    "Name": "Flat Iron Grill - Thamel",
    "Address": "Mandala Street",
    "Cuisine": "Burger | Continental | American",
    "id": 90,
    "Latitude": 14.6091565,
    "Longitude": 121.1296541
  },
  {
    "Name": "Food Stop",
    "Address": "Naxal, Kathmandu",
    "Cuisine": "Multi Cuisine",
    "id": 91,
    "Latitude": 27.7126782,
    "Longitude": 85.3287033
  },
  {
    "Name": "Foodmandu Beverages",
    "Address": "Naxal",
    "Cuisine": "Wines | Liquor",
    "id": 92,
    "Latitude": 27.7126782,
    "Longitude": 85.3287033
  },
  {
    "Name": "Freddo Cafe",
    "Address": "Paknajol",
    "Cuisine": "Italian | Pizza",
    "id": 93,
    "Latitude": 27.7182802,
    "Longitude": 85.3095192
  },
  {
    "Name": "French Bakery",
    "Address": "Chhetrapati, Kathmandu",
    "Cuisine": "Continental | Bakery | Burger | Vegan",
    "id": 94,
    "Latitude": 27.7112071,
    "Longitude": 85.3086148
  },
  {
    "Name": "Friends Cafe & Bar",
    "Address": "Mandala Street, Thamel, Kathmandu",
    "Cuisine": "Middle Eastern",
    "id": 96,
    "Latitude": 27.7151331,
    "Longitude": 85.3108114
  },
  {
    "Name": "Genesis Cafe",
    "Address": "Panipokhari, Kathmandu",
    "Cuisine": "Burger | Multi Cuisine | MoMo | Burger",
    "id": 97,
    "Latitude": 27.7292515,
    "Longitude": 85.3247457
  },
  {
    "Name": "Ghangri Cafe",
    "Address": "Jhamsikhel, Lalitpur",
    "Cuisine": "MoMo | Multi Cuisine",
    "id": 99,
    "Latitude": 27.6827881,
    "Longitude": 85.3021862
  },
  {
    "Name": "Green Leaves",
    "Address": "Lazimpat",
    "Cuisine": "Indian | Multi Cuisine",
    "id": 101,
    "Latitude": 27.7221328,
    "Longitude": 85.3207726
  },
  {
    "Name": "Green Line Centre",
    "Address": "Durbarmarg, Kathmandu",
    "Cuisine": "Liquor | Wines | Beverages",
    "id": 102,
    "Latitude": 27.7111138,
    "Longitude": 85.3177122
  },
  {
    "Name": "Grill Me Cafe",
    "Address": "Sanepa",
    "Cuisine": "American",
    "id": 103,
    "Latitude": -3.7340359,
    "Longitude": 136.807208
  },
  {
    "Name": "Hermann Helmers",
    "Address": "Sanepa, Lalitpur",
    "Cuisine": "Bakery | Cake",
    "id": 105,
    "Latitude": 27.6837719,
    "Longitude": 85.309353
  },
  {
    "Name": "Home Chef",
    "Address": "Bhaisepati",
    "Cuisine": "Multi Cuisine",
    "id": 106,
    "Latitude": 27.6561677,
    "Longitude": 85.3060365
  },
  {
    "Name": "Hungry Panda : Fresh Asian Fusion",
    "Address": "Jamal, Kathmandu",
    "Cuisine": "Fast Food | Asian",
    "id": 107,
    "Latitude": 27.7087085,
    "Longitude": 85.3148712
  },
  {
    "Name": "Hyderabad House",
    "Address": "Bhatbhateni, Kathmandu",
    "Cuisine": "Indian | Biryani",
    "id": 108,
    "Latitude": 27.7192364,
    "Longitude": 85.3311727
  },
  {
    "Name": "Imago Dei",
    "Address": "Nag Pokhari, Kathmandu",
    "Cuisine": "Continental | Cake",
    "id": 110,
    "Latitude": 27.7134698,
    "Longitude": 85.32419973815112
  },
  {
    "Name": "Indreni Foodland",
    "Address": "New Baneshwor, Kathmandu",
    "Cuisine": "Bakery | Cake | Multi Cuisine",
    "id": 112,
    "Latitude": 27.68990755,
    "Longitude": 85.33565914433615
  },
  {
    "Name": "Jhamel Beats",
    "Address": "Jhamsikhel",
    "Cuisine": "Multi Cuisine",
    "id": 114,
    "Latitude": 27.6827881,
    "Longitude": 85.3021862
  },
  {
    "Name": "Kaffeine",
    "Address": "Durbar Marg, Kathmandu",
    "Cuisine": "Multi Cuisine | Fast Food",
    "id": 115,
    "Latitude": 27.7035601,
    "Longitude": 85.3163819
  },
  {
    "Name": "Keventers",
    "Address": "Durbar Marg, Kathmandu",
    "Cuisine": "Beverages | Milkshakes",
    "id": 116,
    "Latitude": 27.7035601,
    "Longitude": 85.3163819
  },
  {
    "Name": "Keventers - Labim Mall",
    "Address": "Labim Mall",
    "Cuisine": "Beverages | Milkshakes",
    "id": 117,
    "Latitude": 27.677196600000002,
    "Longitude": 85.31714428831928
  },
  {
    "Name": "Keventers",
    "Address": "Thamel",
    "Cuisine": "Beverages | Milkshakes",
    "id": 118,
    "Latitude": 27.717028,
    "Longitude": 85.311256
  },
  {
    "Name": "KFC : Boudha",
    "Address": "Boudha, Kathmandu",
    "Cuisine": "Fast Food",
    "id": 120,
    "Latitude": 27.71722,
    "Longitude": 85.3468113
  },
  {
    "Name": "KFC : Durbar Marg",
    "Address": "Durbar Marg, Kathmandu",
    "Cuisine": "Fast Food",
    "id": 121,
    "Latitude": 27.7035601,
    "Longitude": 85.3163819
  },
  {
    "Name": "KFC : Labim",
    "Address": "Labim Mall, Lalitpur",
    "Cuisine": "Fast Food",
    "id": 122,
    "Latitude": 27.677196600000002,
    "Longitude": 85.31714428831928
  },
  {
    "Name": "KFC : Mahrajgunj",
    "Address": "Maharajgunj, Kathmandu",
    "Cuisine": "Fast Food",
    "id": 123,
    "Latitude": 27.7336566,
    "Longitude": 85.3296536
  },
  {
    "Name": "Kimchee Restaurant & Bar",
    "Address": "Boudha, Kathmandu",
    "Cuisine": "Asian | Korean",
    "id": 124,
    "Latitude": 27.71722,
    "Longitude": 85.3468113
  },
  {
    "Name": "KKFC  - Maitidevi",
    "Address": "Maitidevi",
    "Cuisine": "Fast Food",
    "id": 125,
    "Latitude": 27.7039253,
    "Longitude": 85.3328212
  },
  {
    "Name": "KKFC - People's Plaza",
    "Address": "People's Plaza",
    "Cuisine": "Fast Food",
    "id": 126,
    "Latitude": 17.41858015,
    "Longitude": 78.46575124522334
  },
  {
    "Name": "Korea Pyongyang Arirang Restaurant",
    "Address": "Durbarmarg, Kathmandu",
    "Cuisine": "Asian | Korean",
    "id": 127,
    "Latitude": 27.7111138,
    "Longitude": 85.3177122
  },
  {
    "Name": "Koto (Pulchowk)",
    "Address": "Pulchowk, Lalitpur",
    "Cuisine": "Asian | Japanese",
    "id": 128,
    "Latitude": 27.6760817,
    "Longitude": 85.3157065
  },
  {
    "Name": "Koto Bar (Durbarmarg)",
    "Address": "Durbar Marg, Kathmandu",
    "Cuisine": "Asian | Japanese",
    "id": 129,
    "Latitude": 27.7035601,
    "Longitude": 85.3163819
  },
  {
    "Name": "KruaThai",
    "Address": "Naxal, Kathmandu",
    "Cuisine": "Thai | Asian",
    "id": 130,
    "Latitude": 27.7126782,
    "Longitude": 85.3287033
  },
  {
    "Name": "Kumari Restaurant & Bar",
    "Address": "Putalisadak, Kathmandu",
    "Cuisine": "Multi Cuisine",
    "id": 131,
    "Latitude": 27.7073691,
    "Longitude": 85.3224193
  },
  {
    "Name": "La Dolce Vita",
    "Address": "Thamel, Kathmandu",
    "Cuisine": "Italian | Pizza",
    "id": 132,
    "Latitude": 27.717028,
    "Longitude": 85.311256
  },
  {
    "Name": "Le Mirch",
    "Address": "Pulchowk, Labim Mall",
    "Cuisine": "Indian",
    "id": 133,
    "Latitude": 27.677196600000002,
    "Longitude": 85.31714428831928
  },
  {
    "Name": "Le Trio",
    "Address": "Jhamsikhel, Lalitpur",
    "Cuisine": "MoMo | Multi Cuisine",
    "id": 134,
    "Latitude": 27.6827881,
    "Longitude": 85.3021862
  },
  {
    "Name": "Le Trio (Durbar Marg)",
    "Address": "Durbar Marg, Kathmandu",
    "Cuisine": "Multi Cuisine | MoMo",
    "id": 135,
    "Latitude": 27.7035601,
    "Longitude": 85.3163819
  },
  {
    "Name": "Level 3",
    "Address": "Labim Mall",
    "Cuisine": "Asian | Middle Eastern",
    "id": 136,
    "Latitude": 27.677196600000002,
    "Longitude": 85.31714428831928
  },
  {
    "Name": "Little Italy Ristorante :: Bar",
    "Address": "Ghantaghar, Kathmandu",
    "Cuisine": "Vegetarian | Italian | Pizza",
    "id": 137,
    "Latitude": 27.7075045,
    "Longitude": 85.31681839112532
  },
  {
    "Name": "Mandala Bakery",
    "Address": "Balaju, Kathmandu",
    "Cuisine": "Bakery",
    "id": 140,
    "Latitude": 27.7270105,
    "Longitude": 85.3045555
  },
  {
    "Name": "Mango Chili",
    "Address": "Labim Mall",
    "Cuisine": "Thai | Asian",
    "id": 141,
    "Latitude": 27.677196600000002,
    "Longitude": 85.31714428831928
  },
  {
    "Name": "Manny's Eatry And Tapas Bar",
    "Address": "Jawalakhel, Lalitpur",
    "Cuisine": "Continental",
    "id": 142,
    "Latitude": 27.6724402,
    "Longitude": 85.3133757
  },
  {
    "Name": "Masala Cottage",
    "Address": "Teku, Kathmandu",
    "Cuisine": "Indian",
    "id": 143,
    "Latitude": 27.6975071,
    "Longitude": 85.3038514
  },
  {
    "Name": "Mauri Restaurant",
    "Address": "Lazimpat , Kathmandu",
    "Cuisine": "Pizza",
    "id": 144,
    "Latitude": 27.7215082,
    "Longitude": 85.3207646
  },
  {
    "Name": "Mezze By Roadhouse",
    "Address": "Durbar Marg, Kathmandu",
    "Cuisine": "Italian | Pizza",
    "id": 145,
    "Latitude": 27.7035601,
    "Longitude": 85.3163819
  },
  {
    "Name": "Mike's Breakfast",
    "Address": "Lazimpat, Kathmandu, Kathmandu",
    "Cuisine": "Mexican",
    "id": 146,
    "Latitude": 27.7215082,
    "Longitude": 85.3207646
  },
  {
    "Name": "Mirage Lords Inn",
    "Address": "Battisputali, Kathmandu",
    "Cuisine": "Biryani | Indian",
    "id": 147,
    "Latitude": 27.7056762,
    "Longitude": 85.3415089
  },
  {
    "Name": "Momo Queen",
    "Address": "Lazimpat, Kathmandu",
    "Cuisine": "MoMo",
    "id": 148,
    "Latitude": 27.7215082,
    "Longitude": 85.3207646
  },
  {
    "Name": "Moti Mahal Delux - Veg Indian Cuisine",
    "Address": "Durbarmarg, Kathmandu",
    "Cuisine": "Asian",
    "id": 149,
    "Latitude": 27.7111138,
    "Longitude": 85.3177122
  },
  {
    "Name": "Mughal Empire",
    "Address": "Lazimpat, Kathmandu",
    "Cuisine": "Indian | Biryani",
    "id": 150,
    "Latitude": 27.7215082,
    "Longitude": 85.3207646
  },
  {
    "Name": "Nanglo Cafe and Pub",
    "Address": "kamaladi , Kathmandu",
    "Cuisine": "Continental",
    "id": 151,
    "Latitude": 27.708065249999997,
    "Longitude": 85.31931643480625
  },
  {
    "Name": "Octave Lounge & Bar",
    "Address": "Durbarmarg, Kathmandu",
    "Cuisine": "Japanese | Continental",
    "id": 153,
    "Latitude": 27.7111138,
    "Longitude": 85.3177122
  },
  {
    "Name": "Om Tandoori",
    "Address": "Kalopul",
    "Cuisine": "Fast Food | Indian",
    "id": 154,
    "Latitude": 27.7118152,
    "Longitude": 85.3368893
  },
  {
    "Name": "OR2K",
    "Address": "Thamel, Kathmandu",
    "Cuisine": "Vegetarian | Middle Eastern | Vegan",
    "id": 156,
    "Latitude": 27.717028,
    "Longitude": 85.311256
  },
  {
    "Name": "Oriental Kitchen",
    "Address": "Baluwatar, Kathmandu",
    "Cuisine": "Continental | Chinese | Indian",
    "id": 157,
    "Latitude": 27.7233471,
    "Longitude": 85.3331617
  },
  {
    "Name": "Pepe Pizza",
    "Address": "Maharajgunj, Kathmandu",
    "Cuisine": "Italian | Pizza",
    "id": 159,
    "Latitude": 27.7336566,
    "Longitude": 85.3296536
  },
  {
    "Name": "Pepe Pizza",
    "Address": "Balaju, Kathmandu",
    "Cuisine": "Pizza | Italian",
    "id": 160,
    "Latitude": 27.7270105,
    "Longitude": 85.3045555
  },
  {
    "Name": "Pepe Pizza :: Anamnagar",
    "Address": "Anamnagar, Kathmandu",
    "Cuisine": "Italian | Pizza",
    "id": 162,
    "Latitude": 27.692839399999997,
    "Longitude": 85.32842753971141
  },
  {
    "Name": "Pizza Fire",
    "Address": "Maitidevi",
    "Cuisine": "Pizza",
    "id": 165,
    "Latitude": 27.7039253,
    "Longitude": 85.3328212
  },
  {
    "Name": "Pizza Hut",
    "Address": "Durbar Marg",
    "Cuisine": "Fast Food | Pizza",
    "id": 166,
    "Latitude": 27.7035601,
    "Longitude": 85.3163819
  },
  {
    "Name": "Pizza Hut: Bluebird",
    "Address": "Blue Bird Mall",
    "Cuisine": "Pizza | Fast Food",
    "id": 167,
    "Latitude": 36.7353296,
    "Longitude": -119.7914702
  },
  {
    "Name": "Pizza King",
    "Address": "Thamel, Kathmandu",
    "Cuisine": "Fast Food | Italian | Pizza",
    "id": 168,
    "Latitude": 27.717028,
    "Longitude": 85.311256
  },
  {
    "Name": "Prazada",
    "Address": "Bhatbhateni",
    "Cuisine": "Multi Cuisine | Pizza",
    "id": 171,
    "Latitude": 27.7192364,
    "Longitude": 85.3311727
  },
  {
    "Name": "Quick Bite",
    "Address": "Mangalbazar, Lalitpur",
    "Cuisine": "Fast Food",
    "id": 172,
    "Latitude": 27.677112,
    "Longitude": 85.3164205
  },
  {
    "Name": "Rameshwaram Sweets & Snacks",
    "Address": "Newroad, Kathmandu",
    "Cuisine": "Indian | Vegetarian | Sweets",
    "id": 173,
    "Latitude": 27.7028046,
    "Longitude": 85.3090659
  },
  {
    "Name": "Reef Restaurant Lounge & Bar",
    "Address": "Thamel, Kathmandu",
    "Cuisine": "Multi Cuisine | Continental",
    "id": 174,
    "Latitude": 27.717028,
    "Longitude": 85.311256
  },
  {
    "Name": "Roadhouse Cafe",
    "Address": "Bhatbhateni, Kathmandu",
    "Cuisine": "Italian | Pizza",
    "id": 176,
    "Latitude": 27.7192364,
    "Longitude": 85.3311727
  },
  {
    "Name": "Roadhouse Cafe",
    "Address": "Boudha, Kathmandu",
    "Cuisine": "Italian | Pizza",
    "id": 177,
    "Latitude": 27.71722,
    "Longitude": 85.3468113
  },
  {
    "Name": "Roadhouse Cafe",
    "Address": "Thamel, Kathmandu",
    "Cuisine": "Italian | Pizza",
    "id": 178,
    "Latitude": 27.717028,
    "Longitude": 85.311256
  },
  {
    "Name": "Roadhouse Pizzeria",
    "Address": "LABIM Mall, Pulchowk, Lalitpur",
    "Cuisine": "Italian | Pizza",
    "id": 179,
    "Latitude": 27.677196600000002,
    "Longitude": 85.31714428831928
  },
  {
    "Name": "Royal Thai Restaurant & Bar",
    "Address": "New Baneshwor Chowk, Kathmandu",
    "Cuisine": "Thai | Asian",
    "id": 180,
    "Latitude": 27.688951,
    "Longitude": 85.3355286
  },
  {
    "Name": "Rum Doodle Bar and Restaurant",
    "Address": "Thamel, Kathmandu",
    "Cuisine": "Multi Cuisine",
    "id": 181,
    "Latitude": 27.717028,
    "Longitude": 85.311256
  },
  {
    "Name": "Sajan Goth",
    "Address": "Tripureshwor, Kathmandu",
    "Cuisine": "Indian | Vegetarian | Sweets",
    "id": 182,
    "Latitude": 27.692602049999998,
    "Longitude": 85.31453327870256
  },
  {
    "Name": "Sajan Goth :: Kamaladi",
    "Address": "Kamaladi, Kathmandu",
    "Cuisine": "Vegetarian | Indian | Sweets",
    "id": 183,
    "Latitude": 27.708065249999997,
    "Longitude": 85.31931643480625
  },
  {
    "Name": "Sandwich Point -Labim Mall",
    "Address": "Labim Mall",
    "Cuisine": "American",
    "id": 184,
    "Latitude": 27.677196600000002,
    "Longitude": 85.31714428831928
  },
  {
    "Name": "Sandwich Point  - Thamel",
    "Address": "Thamel",
    "Cuisine": "American",
    "id": 185,
    "Latitude": 27.717028,
    "Longitude": 85.311256
  },
  {
    "Name": "Sangam Sweets",
    "Address": "Kamaladi, Kathmandu",
    "Cuisine": "Vegetarian | Indian | Sweets",
    "id": 186,
    "Latitude": 27.708065249999997,
    "Longitude": 85.31931643480625
  },
  {
    "Name": "Sara Bakery",
    "Address": "Jawalakhel, Lalitpur",
    "Cuisine": "Bakery | Cake",
    "id": 188,
    "Latitude": 27.6724402,
    "Longitude": 85.3133757
  },
  {
    "Name": "Sarangi",
    "Address": "Thamel, Kathmandu",
    "Cuisine": "Vegetarian | Vegan",
    "id": 189,
    "Latitude": 27.717028,
    "Longitude": 85.311256
  },
  {
    "Name": "Seoul Dining & Lounge Bar",
    "Address": "Darbar Marg, Kathmandu",
    "Cuisine": "Korean",
    "id": 190,
    "Latitude": 27.7111521,
    "Longitude": 85.3174798
  },
  {
    "Name": "Serene Cafe",
    "Address": "Kalanki",
    "Cuisine": "Nepali",
    "id": 191,
    "Latitude": 20.2675013,
    "Longitude": 74.9799728
  },
  {
    "Name": "Shafqat Halal",
    "Address": "J.P. Road, Thamel",
    "Cuisine": "Halal | Tibetian",
    "id": 192,
    "Latitude": 27.713884,
    "Longitude": 85.3102834
  },
  {
    "Name": "Shangri-la Villa Everest",
    "Address": "Thamel, Kathmandu, Kathmandu",
    "Cuisine": "Asian | Korean",
    "id": 193,
    "Latitude": 27.717028,
    "Longitude": 85.311256
  },
  {
    "Name": "Sinka- have it fresh",
    "Address": "Mahalaxmisthan Road, Patan, Lalitpur",
    "Cuisine": "MoMo",
    "id": 194,
    "Latitude": 27.663738,
    "Longitude": 85.3200241
  },
  {
    "Name": "Slices Pizza",
    "Address": "Kalanki, Kathmandu",
    "Cuisine": "Pizza | Italian",
    "id": 195,
    "Latitude": 27.6932983,
    "Longitude": 85.2816525
  },
  {
    "Name": "Smokin Joes Fresh Pizzas",
    "Address": "Thamel Marga, Kathmandu, Kathmandu",
    "Cuisine": "Pizza",
    "id": 196,
    "Latitude": 27.7150268,
    "Longitude": 85.3116311
  },
  {
    "Name": "Southern Comfort",
    "Address": "Jhamsikhel, Lalitpur",
    "Cuisine": "American",
    "id": 197,
    "Latitude": 27.6827881,
    "Longitude": 85.3021862
  },
  {
    "Name": "Sun Rise Food",
    "Address": "Kalanki, Kathmandu",
    "Cuisine": "Fast Food",
    "id": 199,
    "Latitude": 27.6932983,
    "Longitude": 85.2816525
  },
  {
    "Name": "Supero Pizza & Bakery",
    "Address": "Dhumbarahi",
    "Cuisine": "Italian | Pizza",
    "id": 200,
    "Latitude": 27.7317853,
    "Longitude": 85.3444755
  },
  {
    "Name": "Taas & Sekuwa Mahal",
    "Address": "Teku, Kathmandu",
    "Cuisine": "Multi Cuisine | Nepali",
    "id": 201,
    "Latitude": 27.6975071,
    "Longitude": 85.3038514
  },
  {
    "Name": "Tamarind",
    "Address": "Jhamsikhel, Lalitpur",
    "Cuisine": "Continental | Multi Cuisine",
    "id": 202,
    "Latitude": 27.6827881,
    "Longitude": 85.3021862
  },
  {
    "Name": "Taza Restaurant - Labim Mall",
    "Address": "Labim Mall",
    "Cuisine": "Middle Eastern",
    "id": 206,
    "Latitude": 27.677196600000002,
    "Longitude": 85.31714428831928
  },
  {
    "Name": "Thamel House Restaurant",
    "Address": "Thamel, Kathmandu",
    "Cuisine": "Nepali | Newari",
    "id": 208,
    "Latitude": 27.717028,
    "Longitude": 85.311256
  },
  {
    "Name": "The Full Moon Pizzeria Cafe",
    "Address": "Dhumbarahi",
    "Cuisine": "Italian | Pizza",
    "id": 209,
    "Latitude": 27.7317853,
    "Longitude": 85.3444755
  },
  {
    "Name": "The Lazy Gringo",
    "Address": "Jawalakhel, Lalitpur, Lalitpur",
    "Cuisine": "Mexican",
    "id": 211,
    "Latitude": 27.6724402,
    "Longitude": 85.3133757
  },
  {
    "Name": "The Village Cafe",
    "Address": "Pulchowk, Lalitpur",
    "Cuisine": "Nepali | Newari",
    "id": 214,
    "Latitude": 27.6760817,
    "Longitude": 85.3157065
  },
  {
    "Name": "The Workshop Eatery",
    "Address": "Bakhundole, Lalitpur",
    "Cuisine": "Burger | Mexican | American",
    "id": 215,
    "Latitude": 27.6840423,
    "Longitude": 85.3122014
  },
  {
    "Name": "Third Eye Bakery",
    "Address": "Thamel, Kathmandu",
    "Cuisine": "Bakery | Cake",
    "id": 216,
    "Latitude": 27.717028,
    "Longitude": 85.311256
  },
  {
    "Name": "Third Eye Restaurant",
    "Address": "Thamel, Kathmandu",
    "Cuisine": "Halal | Indian",
    "id": 217,
    "Latitude": 27.717028,
    "Longitude": 85.311256
  },
  {
    "Name": "Thistle Triangle",
    "Address": "Maitighar, Kathmandu",
    "Cuisine": "Continental",
    "id": 218,
    "Latitude": 27.6943461,
    "Longitude": 85.3198448
  },
  {
    "Name": "Times Square Restaurant",
    "Address": "Baluwatar",
    "Cuisine": "Multi Cuisine",
    "id": 219,
    "Latitude": 27.7233471,
    "Longitude": 85.3331617
  },
  {
    "Name": "Trendy Cafe",
    "Address": "Baluwatar, Kathmandu",
    "Cuisine": "Multi Cuisine",
    "id": 222,
    "Latitude": 27.7233471,
    "Longitude": 85.3331617
  },
  {
    "Name": "Trisara",
    "Address": "Lazimpat, Kathmandu",
    "Cuisine": "Continental",
    "id": 223,
    "Latitude": 27.7215082,
    "Longitude": 85.3207646
  },
  {
    "Name": "Urutora Restaurant",
    "Address": "Baluwatar, Kathmandu",
    "Cuisine": "Japanese",
    "id": 225,
    "Latitude": 27.7233471,
    "Longitude": 85.3331617
  },
  {
    "Name": "Utopia",
    "Address": "Ekantakuna, Lalitpur",
    "Cuisine": "Italian",
    "id": 226,
    "Latitude": 27.6666354,
    "Longitude": 85.3083104
  },
  {
    "Name": "Valley Xpress",
    "Address": "Balaju",
    "Cuisine": "Fast Food",
    "id": 227,
    "Latitude": 34.363613,
    "Longitude": 45.377635
  },
  {
    "Name": "Valley Xpress",
    "Address": "Basantapur",
    "Cuisine": "Fast Food",
    "id": 228,
    "Latitude": 22.9755144,
    "Longitude": 88.52974084124516
  },
  {
    "Name": "Valley Xpress",
    "Address": "Maharajgunj",
    "Cuisine": "Fast Food",
    "id": 229,
    "Latitude": 27.536978650000002,
    "Longitude": 82.93888587212963
  },
  {
    "Name": "Vesper Cafe and Restaurant",
    "Address": "Pulchowk, Lalitpur",
    "Cuisine": "Pizza | Italian",
    "id": 231,
    "Latitude": 27.6760817,
    "Longitude": 85.3157065
  },
  {
    "Name": "Vienna Bakery",
    "Address": "Jhamsikhel",
    "Cuisine": "Bakery",
    "id": 232,
    "Latitude": 27.6827881,
    "Longitude": 85.3021862
  },
  {
    "Name": "Viet Ngon Saigon Pho",
    "Address": "Lazimpat, Kathmandu",
    "Cuisine": "Vietnamese | Asian",
    "id": 233,
    "Latitude": 27.7215082,
    "Longitude": 85.3207646
  },
  {
    "Name": "Vino Bistro",
    "Address": "Lazimpat, Kathmandu",
    "Cuisine": "Continental",
    "id": 234,
    "Latitude": 27.7215082,
    "Longitude": 85.3207646
  },
  {
    "Name": "Vootoo",
    "Address": "Lazimpat, Kathmandu",
    "Cuisine": "Newari",
    "id": 235,
    "Latitude": 27.7215082,
    "Longitude": 85.3207646
  },
  {
    "Name": "Wunjala Moskva",
    "Address": "Naxal, Kathmandu",
    "Cuisine": "Continental | Newari | Russian",
    "id": 237,
    "Latitude": 27.7126782,
    "Longitude": 85.3287033
  },
  {
    "Name": "Zen Bistro & Cafe",
    "Address": "Thai | Asian",
    "Cuisine": "Go to old website",
    "id": 241,
    "Latitude": 38.6309895,
    "Longitude": -90.1984999
  }
]